[
	{
		"id": 1,
		"type": 1,
		"location": 1,
		"title": "北京**资产管理有限公司",
		"release": "2017年09月30号  发布",
		"capital": "2000.000000万人民币",
		"setup": "2014年09月25号",
		"time_limit": "20**年09月24日",
		"register": "北京市工商行政管理局朝阳分局",
		"address": "北京市朝阳区霄云路**号**层**",
		"pic_card": "https://mdqygl.cn/static/source/equity/assets_show01.jpg",
		"advantage": "公司无异常，无债务纠纷，无质押担保，急转，价格美丽！",
		"flow": "1. 签订意向合作协议；2. 提供受让方股东信息；3. 办理变更；4. 变更完成交接证件及相关资料。",
		"need_time": "30个工作日",
		"phone": "4008887899"
	},
	{
		"id": 2,
		"type": 1,
		"location": 1,
		"title": "北京**资产管理有限公司",
		"release": "2017年09月30号  发布",
		"capital": "3000.000000万人民币",
		"setup": "2015年03月25号",
		"time_limit": "20**年03月24日",
		"register": "北京市工商行政管理局朝阳分局",
		"address": "北京市朝阳区广华居**号*层*号",
		"pic_card": "https://mdqygl.cn/static/source/equity/assets_show02.jpg",
		"advantage": "公司无异常，无债务纠纷，无质押担保，急转，价格美丽！",
		"flow": "1. 签订意向合作协议；2. 提供受让方股东信息；3. 办理变更；4. 变更完成交接证件及相关资料。",
		"need_time": "30个工作日",
		"phone": "4008887899"
	},
	{
		"id": 3,
		"type": 2,
		"location": 1,
		"title": "北京****资产管理有限公司",
		"release": "2017年06月12号  发布",
		"capital": "3000.000000万人民币",
		"setup": "2015年06月11号",
		"time_limit": "20**年06月11日",
		"register": "北京市工商行政管理局西城分局",
		"address": "北京市西城区锦什坊街**号*号*号",
		"pic_card": "https://mdqygl.cn/static/source/equity/assets_show03.jpg",
		"advantage": "公司无异常，无债务纠纷，无质押担保，急转，价格美丽！",
		"flow": "1. 签订意向合作协议；2. 提供受让方股东信息；3. 办理变更；4. 变更完成交接证件及相关资料。",
		"need_time": "30个工作日",
		"phone": "4008887899"
	},
	{
		"id": 4,
		"type": 3,
		"location": 1,
		"title": "北京**资产管理有限公司",
		"release": "2017年09月30号  发布",
		"capital": "18500.000000万人民币",
		"setup": "2016年07月05号",
		"time_limit": "20**年07月05日",
		"register": "北京市工商行政管理局朝阳分局",
		"address": "北京市朝阳区慈云寺北里**号*层**",
		"pic_card": "https://mdqygl.cn/static/source/equity/assets_show04.jpg",
		"advantage": "公司无异常，无债务纠纷，无质押担保，急转，价格美丽！",
		"flow": "1. 签订意向合作协议；2. 提供受让方股东信息；3. 办理变更；4. 变更完成交接证件及相关资料。",
		"need_time": "30个工作日",
		"phone": "4008887899"
	},
	{
		"id": 5,
		"type": 1,
		"location": 2,
		"title": "上海**资产管理有限公司",
		"release": "2017年09月30号  发布",
		"capital": "2000.000000万人民币",
		"setup": "2014年09月25号",
		"time_limit": "20**年09月24日",
		"register": "上海市工商局",
		"address": "中国(上海)自由贸易试验区福山路**号",
		"pic_card": "https://mdqygl.cn/static/source/equity/assets_show05.jpg",
		"advantage": "公司无异常，无债务纠纷，无质押担保，急转，价格美丽！",
		"flow": "1. 签订意向合作协议；2. 提供受让方股东信息；3. 办理变更；4. 变更完成交接证件及相关资料。",
		"need_time": "30个工作日",
		"phone": "4008887899"
	},
	{
		"id": 6,
		"type": 1,
		"location": 2,
		"title": "上海**资产管理有限公司",
		"release": "2017年09月30号  发布",
		"capital": "3000.000000万人民币",
		"setup": "2015年03月25号",
		"time_limit": "20**年03月24日",
		"register": "上海市工商局",
		"address": "上海市虹口区四川北路**号**室",
		"pic_card": "https://mdqygl.cn/static/source/equity/assets_show06.jpg",
		"advantage": "公司无异常，无债务纠纷，无质押担保，急转，价格美丽！",
		"flow": "1. 签订意向合作协议；2. 提供受让方股东信息；3. 办理变更；4. 变更完成交接证件及相关资料。",
		"need_time": "30个工作日",
		"phone": "4008887899"
	},
	{
		"id": 7,
		"type": 2,
		"location": 2,
		"title": "上海**资产管理有限公司",
		"release": "2017年06月12号  发布",
		"capital": "3000.000000万人民币",
		"setup": "2015年06月11号",
		"time_limit": "20**年06月11日",
		"register": "上海市工商局",
		"address": "上海市浦东新区上川路**号**室",
		"pic_card": "https://mdqygl.cn/static/source/equity/assets_show07.jpg",
		"advantage": "公司无异常，无债务纠纷，无质押担保，急转，价格美丽！",
		"flow": "1. 签订意向合作协议；2. 提供受让方股东信息；3. 办理变更；4. 变更完成交接证件及相关资料。",
		"need_time": "30个工作日",
		"phone": "4008887899"
	},
	{
		"id": 8,
		"type": 3,
		"location": 2,
		"title": "上海**资产管理有限公司",
		"release": "2017年09月30号  发布",
		"capital": "18500.000000万人民币",
		"setup": "2016年07月05号",
		"time_limit": "20**年07月05日",
		"register": "上海市工商局",
		"address": "中国(上海)自由贸易试验区东方路**号",
		"pic_card": "https://mdqygl.cn/static/source/equity/assets_show08.jpg",
		"advantage": "公司无异常，无债务纠纷，无质押担保，急转，价格美丽！",
		"flow": "1. 签订意向合作协议；2. 提供受让方股东信息；3. 办理变更；4. 变更完成交接证件及相关资料。",
		"need_time": "30个工作日",
		"phone": "4008887899"
	},
	{
		"id": 9,
		"type": 1,
		"location": 3,
		"title": "浙江**资产管理有限公司",
		"release": "2017年09月30号  发布",
		"capital": "2000.000000万人民币",
		"setup": "2014年09月25号",
		"time_limit": "20**年09月24日",
		"register": "杭州市西湖区市场监督管理局",
		"address": "浙江省杭州市西湖区白沙泉**号***室",
		"pic_card": "https://mdqygl.cn/static/source/equity/assets_show09.jpg",
		"advantage": "公司无异常，无债务纠纷，无质押担保，急转，价格美丽！",
		"flow": "1. 签订意向合作协议；2. 提供受让方股东信息；3. 办理变更；4. 变更完成交接证件及相关资料。",
		"need_time": "30个工作日",
		"phone": "4008887899"
	},
	{
		"id": 10,
		"type": 1,
		"location": 3,
		"title": "浙江**资产管理有限公司",
		"release": "2017年09月30号  发布",
		"capital": "3000.000000万人民币",
		"setup": "2015年03月25号",
		"time_limit": "20**年03月24日",
		"register": "杭州市西湖区市场监督管理局",
		"address": "杭州市梅灵北路*****",
		"pic_card": "https://mdqygl.cn/static/source/equity/assets_show10.jpg",
		"advantage": "公司无异常，无债务纠纷，无质押担保，急转，价格美丽！",
		"flow": "1. 签订意向合作协议；2. 提供受让方股东信息；3. 办理变更；4. 变更完成交接证件及相关资料。",
		"need_time": "30个工作日",
		"phone": "4008887899"
	},
	{
		"id": 11,
		"type": 2,
		"location": 3,
		"title": "浙江**资产管理有限公司",
		"release": "2017年06月12号  发布",
		"capital": "3000.000000万人民币",
		"setup": "2015年06月11号",
		"time_limit": "20**年06月11日",
		"register": "杭州市高新区（滨江）市场监督管理局",
		"address": "杭州市滨江区西兴街道楚天路**号",
		"pic_card": "https://mdqygl.cn/static/source/equity/assets_show11.jpg",
		"advantage": "公司无异常，无债务纠纷，无质押担保，急转，价格美丽！",
		"flow": "1. 签订意向合作协议；2. 提供受让方股东信息；3. 办理变更；4. 变更完成交接证件及相关资料。",
		"need_time": "30个工作日",
		"phone": "4008887899"
	},
	{
		"id": 12,
		"type": 3,
		"location": 3,
		"title": "浙江**资产管理有限公司",
		"release": "2017年09月30号  发布",
		"capital": "18500.000000万人民币",
		"setup": "2016年07月05号",
		"time_limit": "20**年07月05日",
		"register": "杭州市上城区市场监督管理局",
		"address": "浙江省杭州市上城区白云路**号**室",
		"pic_card": "https://mdqygl.cn/static/source/equity/assets_show12.jpg",
		"advantage": "公司无异常，无债务纠纷，无质押担保，急转，价格美丽！",
		"flow": "1. 签订意向合作协议；2. 提供受让方股东信息；3. 办理变更；4. 变更完成交接证件及相关资料。",
		"need_time": "30个工作日",
		"phone": "4008887899"
	},
	{
		"id": 13,
		"type": 1,
		"location": 4,
		"title": "深圳**资产管理有限公司",
		"release": "2017年09月30号  发布",
		"capital": "2000.000000万人民币",
		"setup": "2014年09月25号",
		"time_limit": "20**年09月24日",
		"register": "深圳市市场监督管理局",
		"address": "深圳市龙岗区坂田街道****号***",
		"pic_card": "https://mdqygl.cn/static/source/equity/assets_show13.jpg",
		"advantage": "公司无异常，无债务纠纷，无质押担保，急转，价格美丽！",
		"flow": "1. 签订意向合作协议；2. 提供受让方股东信息；3. 办理变更；4. 变更完成交接证件及相关资料。",
		"need_time": "30个工作日",
		"phone": "4008887899"
	},
	{
		"id": 14,
		"type": 1,
		"location": 4,
		"title": "深圳**资产管理有限公司",
		"release": "2017年09月30号  发布",
		"capital": "3000.000000万人民币",
		"setup": "2015年03月25号",
		"time_limit": "20**年03月24日",
		"register": "深圳市市场监督管理局",
		"address": "深圳市前海深港合作区前湾一路**号",
		"pic_card": "https://mdqygl.cn/static/source/equity/assets_show14.jpg",
		"advantage": "公司无异常，无债务纠纷，无质押担保，急转，价格美丽！",
		"flow": "1. 签订意向合作协议；2. 提供受让方股东信息；3. 办理变更；4. 变更完成交接证件及相关资料。",
		"need_time": "30个工作日",
		"phone": "4008887899"
	},
	{
		"id": 15,
		"type": 2,
		"location": 4,
		"title": "深圳**资产管理有限公司",
		"release": "2017年06月12号  发布",
		"capital": "3000.000000万人民币",
		"setup": "2015年06月11号",
		"time_limit": "20**年06月11日",
		"register": "深圳市市场监督管理局",
		"address": "深圳市福田区侨香路**号***",
		"pic_card": "https://mdqygl.cn/static/source/equity/assets_show15.jpg",
		"advantage": "公司无异常，无债务纠纷，无质押担保，急转，价格美丽！",
		"flow": "1. 签订意向合作协议；2. 提供受让方股东信息；3. 办理变更；4. 变更完成交接证件及相关资料。",
		"need_time": "30个工作日",
		"phone": "4008887899"
	},
	{
		"id": 16,
		"type": 3,
		"location": 4,
		"title": "深圳**资产管理有限公司",
		"release": "2017年09月30号  发布",
		"capital": "18500.000000万人民币",
		"setup": "2016年07月05号",
		"time_limit": "20**年07月05日",
		"register": "深圳市市场监督管理局",
		"address": "深圳市福田区红荔西路******",
		"pic_card": "https://mdqygl.cn/static/source/equity/assets_show16.jpg",
		"advantage": "公司无异常，无债务纠纷，无质押担保，急转，价格美丽！",
		"flow": "1. 签订意向合作协议；2. 提供受让方股东信息；3. 办理变更；4. 变更完成交接证件及相关资料。",
		"need_time": "30个工作日",
		"phone": "4008887899"
	}
]